[
    {
        "TITLE": "Paróquia Santo Inácio de Loyola e São Paulo Apóstolo",
        "LINK": "https://www.google.com.br/maps/place/Par%C3%B3quia+Santo+In%C3%A1cio+de+Loyola+e+S%C3%A3o+Paulo+Ap%C3%B3stolo/data=!4m7!3m6!1s0x94ce5987186df809:0xee3eeba9d4cd2bf9!8m2!3d-23.5857645!4d-46.6379217!16s%2Fg%2F1th1w596!19sChIJCfhtGIdZzpQR-SvN1KnrPu4?authuser=0&hl=pt-BR&rclk=1",
        "LATITUDE": -23.5857645,
        "LONGITUDE": -46.6379217
    },
    {
        "TITLE": "Paróquia Santa Rita de Cássia",
        "LINK": "https://www.google.com.br/maps/place/Par%C3%B3quia+Santa+Rita+de+C%C3%A1ssia/data=!4m7!3m6!1s0x94ce59808afc5545:0x9800cd7fe288f0f0!8m2!3d-23.5852918!4d-46.6343246!16s%2Fg%2F1ptvsgy6t!19sChIJRVX8ioBZzpQR8PCI4n_NAJg?authuser=0&hl=pt-BR&rclk=1",
        "LATITUDE": -23.5852918,
        "LONGITUDE": -46.6343246
    },
    {
        "TITLE": "Paróquia Nossa Senhora da Saúde",
        "LINK": "https://www.google.com.br/maps/place/Par%C3%B3quia+Nossa+Senhora+da+Sa%C3%BAde/data=!4m7!3m6!1s0x94ce5a3211a0d7b5:0x8fb538b2011bcf46!8m2!3d-23.5973323!4d-46.6362179!16s%2Fg%2F1ptyfcxh1!19sChIJtdegETJazpQRRs8bAbI4tY8?authuser=0&hl=pt-BR&rclk=1",
        "LATITUDE": -23.5973323,
        "LONGITUDE": -46.6362179
    },
    {
        "TITLE": "Paróquia São Francisco de Assis",
        "LINK": "https://www.google.com.br/maps/place/Par%C3%B3quia+S%C3%A3o+Francisco+de+Assis/data=!4m7!3m6!1s0x94ce5a23cf0e3613:0xf96466784fc0aa05!8m2!3d-23.5967533!4d-46.6486737!16s%2Fg%2F1tqygmw0!19sChIJEzYOzyNazpQRBarAT3hmZPk?authuser=0&hl=pt-BR&rclk=1",
        "LATITUDE": -23.5967533,
        "LONGITUDE": -46.6486737
    },
    {
        "TITLE": "Paróquia Santa Generosa",
        "LINK": "https://www.google.com.br/maps/place/Par%C3%B3quia+Santa+Generosa/data=!4m7!3m6!1s0x94ce5990adaa757f:0x3860ace9c375dd9a!8m2!3d-23.5747733!4d-46.6420873!16s%2Fg%2F1s048pq9m!19sChIJf3WqrZBZzpQRmt11w-msYDg?authuser=0&hl=pt-BR&rclk=1",
        "LATITUDE": -23.5747733,
        "LONGITUDE": -46.6420873
    },
    {
        "TITLE": "Paróquia Nossa Senhora do Carmo",
        "LINK": "https://www.google.com.br/maps/place/Par%C3%B3quia+Nossa+Senhora+do+Carmo/data=!4m7!3m6!1s0x94ce5977e4418c49:0xa73ac9c49fc18984!8m2!3d-23.5749515!4d-46.6313191!16s%2Fg%2F1pp2wwc0g!19sChIJSYxB5HdZzpQRhInBn8TJOqc?authuser=0&hl=pt-BR&rclk=1",
        "LATITUDE": -23.5749515,
        "LONGITUDE": -46.6313191
    },
    {
        "TITLE": "Paróquia Nossa Senhora do Brasil",
        "LINK": "https://www.google.com.br/maps/place/Par%C3%B3quia+Nossa+Senhora+do+Brasil/data=!4m7!3m6!1s0x94ce577d17e29ce1:0xe2f8d3bf0f569d98!8m2!3d-23.5694676!4d-46.6725933!16s%2Fm%2F0lqfzh0!19sChIJ4ZziF31XzpQRmJ1WD7_T-OI?authuser=0&hl=pt-BR&rclk=1",
        "LATITUDE": -23.5694676,
        "LONGITUDE": -46.6725933
    },
    {
        "TITLE": "Paróquia Santíssimo Sacramento",
        "LINK": "https://www.google.com.br/maps/place/Par%C3%B3quia+Sant%C3%ADssimo+Sacramento/data=!4m7!3m6!1s0x94ce599321f28ad1:0x838c07d91cf41453!8m2!3d-23.5804343!4d-46.6500954!16s%2Fg%2F1tdmr59w!19sChIJ0YryIZNZzpQRUxT0HNkHjIM?authuser=0&hl=pt-BR&rclk=1",
        "LATITUDE": -23.5804343,
        "LONGITUDE": -46.6500954
    },
    {
        "TITLE": "Mitra Arquidiocesana São Paulo",
        "LINK": "https://www.google.com.br/maps/place/Mitra+Arquidiocesana+S%C3%A3o+Paulo/data=!4m7!3m6!1s0x94ce59880fadcfc3:0x98eaed883ebd24e1!8m2!3d-23.588385!4d-46.6419757!16s%2Fg%2F1tkc7tcz!19sChIJw8-tD4hZzpQR4SS9Pojt6pg?authuser=0&hl=pt-BR&rclk=1",
        "LATITUDE": -23.588385,
        "LONGITUDE": -46.6419757
    },
    {
        "TITLE": "Paróquia Nossa Senhora Aparecida de Moema",
        "LINK": "https://www.google.com.br/maps/place/Par%C3%B3quia+Nossa+Senhora+Aparecida+de+Moema/data=!4m7!3m6!1s0x94ce5a05329b3635:0x4894cfd2f8e07042!8m2!3d-23.6031837!4d-46.6611175!16s%2Fg%2F11ckxcgggq!19sChIJNTabMgVazpQRQnDg-NLPlEg?authuser=0&hl=pt-BR&rclk=1",
        "LATITUDE": -23.6031837,
        "LONGITUDE": -46.6611175
    },
    {
        "TITLE": "Paróquia Imaculada Conceição",
        "LINK": "https://www.google.com.br/maps/place/Par%C3%B3quia+Imaculada+Concei%C3%A7%C3%A3o/data=!4m7!3m6!1s0x94ce59b93b6794b3:0x62e54d4327f274d6!8m2!3d-23.5663255!4d-46.6479032!16s%2Fg%2F1tk1p34s!19sChIJs5RnO7lZzpQR1nTyJ0NN5WI?authuser=0&hl=pt-BR&rclk=1",
        "LATITUDE": -23.5663255,
        "LONGITUDE": -46.6479032
    },
    {
        "TITLE": "Catedral Greco-Melquita Nossa Senhora do Paraíso",
        "LINK": "https://www.google.com.br/maps/place/Catedral+Greco-Melquita+Nossa+Senhora+do+Para%C3%ADso/data=!4m7!3m6!1s0x94ce59979e69d233:0xfb8447757b5eb7fd!8m2!3d-23.5721942!4d-46.6425474!16s%2Fm%2F0lqg565!19sChIJM9JpnpdZzpQR_bdee3VHhPs?authuser=0&hl=pt-BR&rclk=1",
        "LATITUDE": -23.5721942,
        "LONGITUDE": -46.6425474
    },
    {
        "TITLE": "Paróquia Santo Agostinho",
        "LINK": "https://www.google.com.br/maps/place/Par%C3%B3quia+Santo+Agostinho/data=!4m7!3m6!1s0x94ce59a281174a7b:0x93c479fa3f739700!8m2!3d-23.5686882!4d-46.6393807!16s%2Fg%2F11b7t5t5yq!19sChIJe0oXgaJZzpQRAJdzP_p5xJM?authuser=0&hl=pt-BR&rclk=1",
        "LATITUDE": -23.5686882,
        "LONGITUDE": -46.6393807
    },
    {
        "TITLE": "Paróquia Assunção de Nossa Senhora",
        "LINK": "https://www.google.com.br/maps/place/Par%C3%B3quia+Assun%C3%A7%C3%A3o+de+Nossa+Senhora/data=!4m7!3m6!1s0x94ce59c4dc8e7bbf:0xab8878c702e8ed74!8m2!3d-23.5690753!4d-46.6606327!16s%2Fg%2F1ptw69rb9!19sChIJv3uO3MRZzpQRdO3oAsd4iKs?authuser=0&hl=pt-BR&rclk=1",
        "LATITUDE": -23.5690753,
        "LONGITUDE": -46.6606327
    },
    {
        "TITLE": "Paróquia Santa Rita de Cássia",
        "LINK": "https://www.google.com.br/maps/place/Par%C3%B3quia+Santa+Rita+de+C%C3%A1ssia/data=!4m7!3m6!1s0x94ce5a37e3fffc89:0x4d4e9d78ff5c571a!8m2!3d-23.6073555!4d-46.6407064!16s%2Fm%2F0lpz548!19sChIJifz_4zdazpQRGldc_3idTk0?authuser=0&hl=pt-BR&rclk=1",
        "LATITUDE": -23.6073555,
        "LONGITUDE": -46.6407064
    },
    {
        "TITLE": "Paróquia Nossa Senhora da Consolação",
        "LINK": "https://www.google.com.br/maps/place/Par%C3%B3quia+Nossa+Senhora+da+Consola%C3%A7%C3%A3o/data=!4m7!3m6!1s0x94ce5849509a5923:0xb63945f971e05a5d!8m2!3d-23.5476885!4d-46.6466902!16s%2Fm%2F0lpz0tc!19sChIJI1maUElYzpQRXVrgcflFObY?authuser=0&hl=pt-BR&rclk=1",
        "LATITUDE": -23.5476885,
        "LONGITUDE": -46.6466902
    },
    {
        "TITLE": "Paróquia Pessoal Alemã São Bonifácio",
        "LINK": "https://www.google.com.br/maps/place/Par%C3%B3quia+Pessoal+Alem%C3%A3+S%C3%A3o+Bonif%C3%A1cio/data=!4m7!3m6!1s0x94ce598f6ce665a9:0xe1a61b784f1827dc!8m2!3d-23.5829051!4d-46.642831!16s%2Fg%2F1tdnm7kf!19sChIJqWXmbI9ZzpQR3CcYT3gbpuE?authuser=0&hl=pt-BR&rclk=1",
        "LATITUDE": -23.5829051,
        "LONGITUDE": -46.642831
    },
    {
        "TITLE": "Paróquia São Gabriel Arcanjo",
        "LINK": "https://www.google.com.br/maps/place/Par%C3%B3quia+S%C3%A3o+Gabriel+Arcanjo/data=!4m7!3m6!1s0x94ce59e02d4e7e99:0xa62c31bca00d549b!8m2!3d-23.5819259!4d-46.6701921!16s%2Fg%2F1ptx_09jp!19sChIJmX5OLeBZzpQRm1QNoLwxLKY?authuser=0&hl=pt-BR&rclk=1",
        "LATITUDE": -23.5819259,
        "LONGITUDE": -46.6701921
    },
    {
        "TITLE": "Paróquia Divino Espírito Santo",
        "LINK": "https://www.google.com.br/maps/place/Par%C3%B3quia+Divino+Esp%C3%ADrito+Santo/data=!4m7!3m6!1s0x94ce59ccaea3aaef:0x958d61369112b233!8m2!3d-23.5561174!4d-46.6561202!16s%2Fg%2F1pv0_xrz4!19sChIJ76qjrsxZzpQRM7ISkTZhjZU?authuser=0&hl=pt-BR&rclk=1",
        "LATITUDE": -23.5561174,
        "LONGITUDE": -46.6561202
    },
    {
        "TITLE": "Santuário Mãe e Rainha de Schoenstatt - Vila Mariana",
        "LINK": "https://www.google.com.br/maps/place/Santu%C3%A1rio+M%C3%A3e+e+Rainha+de+Schoenstatt+-+Vila+Mariana/data=!4m7!3m6!1s0x94ce5a2e35e83dff:0x85c286913c349b23!8m2!3d-23.5962947!4d-46.6391273!16s%2Fg%2F1pp2vjvgs!19sChIJ_z3oNS5azpQRI5s0PJGGwoU?authuser=0&hl=pt-BR&rclk=1",
        "LATITUDE": -23.5962947,
        "LONGITUDE": -46.6391273
    },
    {
        "TITLE": "Paróquia Nossa Senhora das Dores",
        "LINK": "https://www.google.com.br/maps/place/Par%C3%B3quia+Nossa+Senhora+das+Dores/data=!4m7!3m6!1s0x94ce595f554ef1b5:0xb7feb9e1b143fd52!8m2!3d-23.5769779!4d-46.607834!16s%2Fg%2F1yfj8t4ky!19sChIJtfFOVV9ZzpQRUv1DseG5_rc?authuser=0&hl=pt-BR&rclk=1",
        "LATITUDE": -23.5769779,
        "LONGITUDE": -46.607834
    },
    {
        "TITLE": "Paróquia São José",
        "LINK": "https://www.google.com.br/maps/place/Par%C3%B3quia+S%C3%A3o+Jos%C3%A9/data=!4m7!3m6!1s0x94cefb60641c2ffb:0xa96299e47d6ea697!8m2!3d-23.5744727!4d-46.6814129!16s%2Fg%2F1tj85z_v!19sChIJ-y8cZGD7zpQRl6ZufeSZYqk?authuser=0&hl=pt-BR&rclk=1",
        "LATITUDE": -23.5744727,
        "LONGITUDE": -46.6814129
    },
    {
        "TITLE": "Paróquia São Francisco de Assis",
        "LINK": "https://www.google.com.br/maps/place/Par%C3%B3quia+S%C3%A3o+Francisco+de+Assis/data=!4m7!3m6!1s0x94ce59aca57e61b1:0xe68efe2b6abea189!8m2!3d-23.5497814!4d-46.6372227!16s%2Fg%2F11b75qx91b!19sChIJsWF-paxZzpQRiaG-aiv-juY?authuser=0&hl=pt-BR&rclk=1",
        "LATITUDE": -23.5497814,
        "LONGITUDE": -46.6372227
    },
    {
        "TITLE": "Paróquia Divino Espírito Santo",
        "LINK": "https://www.google.com.br/maps/place/Par%C3%B3quia+Divino+Esp%C3%ADrito+Santo/data=!4m7!3m6!1s0x94ce59ccaea3aaef:0x958d61369112b233!8m2!3d-23.5561174!4d-46.6561202!16s%2Fg%2F1pv0_xrz4!19sChIJ76qjrsxZzpQRM7ISkTZhjZU?authuser=0&hl=pt-BR&rclk=1",
        "LATITUDE": -23.5561174,
        "LONGITUDE": -46.6561202
    },
    {
        "TITLE": "Paróquia Divino Salvador",
        "LINK": "https://www.google.com.br/maps/place/Par%C3%B3quia+Divino+Salvador/data=!4m7!3m6!1s0x94ce5752fe82c1e1:0xb391cbc98447fd9d!8m2!3d-23.5991138!4d-46.6778456!16s%2Fg%2F1txfq8j9!19sChIJ4cGC_lJXzpQRnf1HhMnLkbM?authuser=0&hl=pt-BR&rclk=1",
        "LATITUDE": -23.5991138,
        "LONGITUDE": -46.6778456
    },
    {
        "TITLE": "Paróquia São Francisco de Sales",
        "LINK": "https://www.google.com.br/maps/place/Par%C3%B3quia+S%C3%A3o+Francisco+de+Sales/data=!4m7!3m6!1s0x94ce5bb8230685b5:0xd70eb34eb139563d!8m2!3d-23.6040526!4d-46.624502!16s%2Fg%2F11dyx75r8m!19sChIJtYUGI7hbzpQRPVY5sU6zDtc?authuser=0&hl=pt-BR&rclk=1",
        "LATITUDE": -23.6040526,
        "LONGITUDE": -46.624502
    },
    {
        "TITLE": "Paróquia São José Do Ipiranga",
        "LINK": "https://www.google.com.br/maps/place/Par%C3%B3quia+S%C3%A3o+Jos%C3%A9+Do+Ipiranga/data=!4m7!3m6!1s0x94ce5befc994b0c5:0x48bb63ede1e766c4!8m2!3d-23.5868918!4d-46.6038718!16s%2Fg%2F1td4930f!19sChIJxbCUye9bzpQRxGbn4e1ju0g?authuser=0&hl=pt-BR&rclk=1",
        "LATITUDE": -23.5868918,
        "LONGITUDE": -46.6038718
    },
    {
        "TITLE": "Paróquia Santa Margarida Maria",
        "LINK": "https://www.google.com.br/maps/place/Par%C3%B3quia+Santa+Margarida+Maria/data=!4m7!3m6!1s0x94ce597dda2afe65:0xd31261234983c275!8m2!3d-23.5820253!4d-46.6262606!16s%2Fg%2F1tcxfb6j!19sChIJZf4q2n1ZzpQRdcKDSSNhEtM?authuser=0&hl=pt-BR&rclk=1",
        "LATITUDE": -23.5820253,
        "LONGITUDE": -46.6262606
    },
    {
        "TITLE": "Paróquia São João de Brito",
        "LINK": "https://www.google.com.br/maps/place/Par%C3%B3quia+S%C3%A3o+Jo%C3%A3o+de+Brito/data=!4m7!3m6!1s0x94ce60d382dcaf3f:0xea81fd08de2473e0!8m2!3d-23.6076588!4d-46.6846281!16s%2Fg%2F1th0ckyz!19sChIJP6_cgtNgzpQR4HMk3gj9geo?authuser=0&hl=pt-BR&rclk=1",
        "LATITUDE": -23.6076588,
        "LONGITUDE": -46.6846281
    },
    {
        "TITLE": "Igreja de Nossa Senhora do Perpétuo Socorro",
        "LINK": "https://www.google.com.br/maps/place/Igreja+de+Nossa+Senhora+do+Perp%C3%A9tuo+Socorro/data=!4m7!3m6!1s0x94ce57749e257811:0x63da2bf19920c3dd!8m2!3d-23.5715254!4d-46.6882893!16s%2Fg%2F1thsh162!19sChIJEXglnnRXzpQR3cMgmfEr2mM?authuser=0&hl=pt-BR&rclk=1",
        "LATITUDE": -23.5715254,
        "LONGITUDE": -46.6882893
    },
    {
        "TITLE": "Paróquia Santa Cândida",
        "LINK": "https://www.google.com.br/maps/place/Par%C3%B3quia+Santa+C%C3%A2ndida/data=!4m7!3m6!1s0x94ce5bdeb8b9c05f:0x2d368a9526c0c9c7!8m2!3d-23.5840114!4d-46.6164413!16s%2Fg%2F1xfspw77!19sChIJX8C5uN5bzpQRx8nAJpWKNi0?authuser=0&hl=pt-BR&rclk=1",
        "LATITUDE": -23.5840114,
        "LONGITUDE": -46.6164413
    },
    {
        "TITLE": "Paróquia São Joaquim",
        "LINK": "https://www.google.com.br/maps/place/Par%C3%B3quia+S%C3%A3o+Joaquim/data=!4m7!3m6!1s0x94ce5912a803e871:0xa8b065d137d28ff2!8m2!3d-23.5627402!4d-46.6227249!16s%2Fg%2F1tfw44v2!19sChIJcegDqBJZzpQR8o_SN9FlsKg?authuser=0&hl=pt-BR&rclk=1",
        "LATITUDE": -23.5627402,
        "LONGITUDE": -46.6227249
    },
    {
        "TITLE": "Paróquia São Luís Gonzaga",
        "LINK": "https://www.google.com.br/maps/place/Par%C3%B3quia+S%C3%A3o+Lu%C3%ADs+Gonzaga/data=!4m7!3m6!1s0x94ce59c8ee808181:0x1f46f3d59a990f42!8m2!3d-23.5563169!4d-46.6615197!16s%2Fg%2F11g6r315c7!19sChIJgYGA7shZzpQRQg-ZmtXzRh8?authuser=0&hl=pt-BR&rclk=1",
        "LATITUDE": -23.5563169,
        "LONGITUDE": -46.6615197
    },
    {
        "TITLE": "Matriz Paroquial Nossa Senhora Rainha dos Apóstolos",
        "LINK": "https://www.google.com.br/maps/place/Matriz+Paroquial+Nossa+Senhora+Rainha+dos+Ap%C3%B3stolos/data=!4m7!3m6!1s0x94ce596761111f51:0xa11f5f72b520ae1b!8m2!3d-23.5726205!4d-46.6130157!16s%2Fg%2F1q5gpzbyg!19sChIJUR8RYWdZzpQRG64gtXJfH6E?authuser=0&hl=pt-BR&rclk=1",
        "LATITUDE": -23.5726205,
        "LONGITUDE": -46.6130157
    },
    {
        "TITLE": "Paróquia São Dimas",
        "LINK": "https://www.google.com.br/maps/place/Par%C3%B3quia+S%C3%A3o+Dimas/data=!4m7!3m6!1s0x94ce5757d2d3ca0f:0x1bd6b7171e661461!8m2!3d-23.5918855!4d-46.6708479!16s%2Fg%2F1td5sd9s!19sChIJD8rT0ldXzpQRYRRmHhe31hs?authuser=0&hl=pt-BR&rclk=1",
        "LATITUDE": -23.5918855,
        "LONGITUDE": -46.6708479
    },
    {
        "TITLE": "Paróquia Santo Ivo",
        "LINK": "https://www.google.com.br/maps/place/Par%C3%B3quia+Santo+Ivo/data=!4m7!3m6!1s0x94ce5a1d6d7f2b0d:0xb1e0c7b0b7428136!8m2!3d-23.5960216!4d-46.6592344!16s%2Fm%2F0lq0ggl!19sChIJDSt_bR1azpQRNoFCt7DH4LE?authuser=0&hl=pt-BR&rclk=1",
        "LATITUDE": -23.5960216,
        "LONGITUDE": -46.6592344
    },
    {
        "TITLE": "Igreja Nossa Senhora da Boa Morte",
        "LINK": "https://www.google.com.br/maps/place/Igreja+Nossa+Senhora+da+Boa+Morte/data=!4m7!3m6!1s0x94ce5907240550e7:0x2d5febc4c82abbce!8m2!3d-23.5521994!4d-46.629936!16s%2Fg%2F1q675tgqs!19sChIJ51AFJAdZzpQRzrsqyMTrXy0?authuser=0&hl=pt-BR&rclk=1",
        "LATITUDE": -23.5521994,
        "LONGITUDE": -46.629936
    },
    {
        "TITLE": "Paróquia São João Batista - O Precursor e São João Batista Scalabrini - Pai e Apóstolo dos Migrantes",
        "LINK": "https://www.google.com.br/maps/place/Par%C3%B3quia+S%C3%A3o+Jo%C3%A3o+Batista+-+O+Precursor+e+S%C3%A3o+Jo%C3%A3o+Batista+Scalabrini+-+Pai+e+Ap%C3%B3stolo+dos+Migrantes/data=!4m7!3m6!1s0x94ce5bc1f9aa05bd:0xeb95f5928986e9c2!8m2!3d-23.5914318!4d-46.6152232!16s%2Fg%2F11ddzhqxmq!19sChIJvQWq-cFbzpQRwumGiZL1les?authuser=0&hl=pt-BR&rclk=1",
        "LATITUDE": -23.5914318,
        "LONGITUDE": -46.6152232
    },
    {
        "TITLE": "Paróquia Nossa Senhora da Esperança",
        "LINK": "https://www.google.com.br/maps/place/Par%C3%B3quia+Nossa+Senhora+da+Esperan%C3%A7a/data=!4m7!3m6!1s0x94ce50a7fd4e4073:0xbe0f419be90c61ab!8m2!3d-23.6086339!4d-46.6712056!16s%2Fg%2F11b6hkggd7!19sChIJc0BO_adQzpQRq2EM6ZtBD74?authuser=0&hl=pt-BR&rclk=1",
        "LATITUDE": -23.6086339,
        "LONGITUDE": -46.6712056
    },
    {
        "TITLE": "Paróquia Nossa Senhora do Monte Serrat",
        "LINK": "https://www.google.com.br/maps/place/Par%C3%B3quia+Nossa+Senhora+do+Monte+Serrat/data=!4m7!3m6!1s0x94ce57a7227f90d9:0xc83229b778aa9083!8m2!3d-23.5673949!4d-46.6959926!16s%2Fg%2F1tfsjjl0!19sChIJ2ZB_IqdXzpQRg5CqeLcpMsg?authuser=0&hl=pt-BR&rclk=1",
        "LATITUDE": -23.5673949,
        "LONGITUDE": -46.6959926
    },
    {
        "TITLE": "Mitra Arquidiocesana São Paulo",
        "LINK": "https://www.google.com.br/maps/place/Mitra+Arquidiocesana+S%C3%A3o+Paulo/data=!4m7!3m6!1s0x94ce5977e5deb12d:0xd4c117fbc5f3aee!8m2!3d-23.5749276!4d-46.6314241!16s%2Fg%2F1tfty263!19sChIJLbHe5XdZzpQR7jpfvH8RTA0?authuser=0&hl=pt-BR&rclk=1",
        "LATITUDE": -23.5749276,
        "LONGITUDE": -46.6314241
    },
    {
        "TITLE": "Matriz Paroquial Pessoal Nipo-Brasileira São Gonçalo",
        "LINK": "https://www.google.com.br/maps/place/Matriz+Paroquial+Pessoal+Nipo-Brasileira+S%C3%A3o+Gon%C3%A7alo/data=!4m7!3m6!1s0x94ce59abc6d87d51:0xe3ec9ff03be8fce6!8m2!3d-23.5522403!4d-46.6352378!16s%2Fg%2F11b6b6kk5g!19sChIJUX3YxqtZzpQR5vzoO_Cf7OM?authuser=0&hl=pt-BR&rclk=1",
        "LATITUDE": -23.5522403,
        "LONGITUDE": -46.6352378
    },
    {
        "TITLE": "Capela do Hospital Santa Catarina",
        "LINK": "https://www.google.com.br/maps/place/Capela+do+Hospital+Santa+Catarina/data=!4m7!3m6!1s0x94ce5947cbbe02df:0x25d72b4a0565f2e6!8m2!3d-23.5696186!4d-46.6452737!16s%2Fg%2F11g079hgq9!19sChIJ3wK-y0dZzpQR5vJlBUor1yU?authuser=0&hl=pt-BR&rclk=1",
        "LATITUDE": -23.5696186,
        "LONGITUDE": -46.6452737
    },
    {
        "TITLE": "Paróquia Nossa Senhora Achiropita",
        "LINK": "https://www.google.com.br/maps/place/Par%C3%B3quia+Nossa+Senhora+Achiropita/data=!4m7!3m6!1s0x94ce59b6aa35b411:0xe29db2eacb26cb77!8m2!3d-23.5573963!4d-46.6467483!16s%2Fm%2F0lq9q0f!19sChIJEbQ1qrZZzpQRd8smy-qyneI?authuser=0&hl=pt-BR&rclk=1",
        "LATITUDE": -23.5573963,
        "LONGITUDE": -46.6467483
    },
    {
        "TITLE": "Santuário Mãe e Rainha de Schoenstatt - Vila Mariana",
        "LINK": "https://www.google.com.br/maps/place/Santu%C3%A1rio+M%C3%A3e+e+Rainha+de+Schoenstatt+-+Vila+Mariana/data=!4m7!3m6!1s0x94ce5a2e35e83dff:0x85c286913c349b23!8m2!3d-23.5962947!4d-46.6391273!16s%2Fg%2F1pp2vjvgs!19sChIJ_z3oNS5azpQRI5s0PJGGwoU?authuser=0&hl=pt-BR&rclk=1",
        "LATITUDE": -23.5962947,
        "LONGITUDE": -46.6391273
    },
    {
        "TITLE": "Catedral Maronita Nossa Senhora do Líbano",
        "LINK": "https://www.google.com.br/maps/place/Catedral+Maronita+Nossa+Senhora+do+L%C3%ADbano/data=!4m7!3m6!1s0x94ce59a22828bba3:0x6e91753462d18365!8m2!3d-23.5624191!4d-46.633381!16s%2Fg%2F1ptvqnb76!19sChIJo7soKKJZzpQRZYPRYjR1kW4?authuser=0&hl=pt-BR&rclk=1",
        "LATITUDE": -23.5624191,
        "LONGITUDE": -46.633381
    },
    {
        "TITLE": "Basílica Nossa Senhora do Carmo",
        "LINK": "https://www.google.com.br/maps/place/Bas%C3%ADlica+Nossa+Senhora+do+Carmo/data=!4m7!3m6!1s0x94ce59affaf92d17:0xa79cfd0b1142c454!8m2!3d-23.5594856!4d-46.6414477!16s%2Fm%2F0lq09l6!19sChIJFy35-q9ZzpQRVMRCEQv9nKc?authuser=0&hl=pt-BR&rclk=1",
        "LATITUDE": -23.5594856,
        "LONGITUDE": -46.6414477
    },
    {
        "TITLE": "Paróquia São Paulo da Cruz - Igreja do Calvário",
        "LINK": "https://www.google.com.br/maps/place/Par%C3%B3quia+S%C3%A3o+Paulo+da+Cruz+-+Igreja+do+Calv%C3%A1rio/data=!4m7!3m6!1s0x94ce579b1ec99f15:0x91636768c006a935!8m2!3d-23.5573781!4d-46.6813529!16s%2Fg%2F1wrtdzrg!19sChIJFZ_JHptXzpQRNakGwGhnY5E?authuser=0&hl=pt-BR&rclk=1",
        "LATITUDE": -23.5573781,
        "LONGITUDE": -46.6813529
    },
    {
        "TITLE": "Paróquia São Pedro e São Paulo",
        "LINK": "https://www.google.com.br/maps/place/Par%C3%B3quia+S%C3%A3o+Pedro+e+S%C3%A3o+Paulo/data=!4m7!3m6!1s0x94ce57177e4755b1:0x7d3832777e5f49bf!8m2!3d-23.5875367!4d-46.6996809!16s%2Fg%2F1tf08sq1!19sChIJsVVHfhdXzpQRv0lffncyOH0?authuser=0&hl=pt-BR&rclk=1",
        "LATITUDE": -23.5875367,
        "LONGITUDE": -46.6996809
    },
    {
        "TITLE": "Capela Nossa Senhora dos Aflitos",
        "LINK": "https://www.google.com.br/maps/place/Capela+Nossa+Senhora+dos+Aflitos/data=!4m7!3m6!1s0x94ce59a8f96119f9:0xcc95500dd350f66d!8m2!3d-23.5561528!4d-46.6346311!16s%2Fg%2F11csq9dmzf!19sChIJ-Rlh-ahZzpQRbfZQ0w1Qlcw?authuser=0&hl=pt-BR&rclk=1",
        "LATITUDE": -23.5561528,
        "LONGITUDE": -46.6346311
    },
    {
        "TITLE": "Paróquia Imaculada Conceição",
        "LINK": "https://www.google.com.br/maps/place/Par%C3%B3quia+Imaculada+Concei%C3%A7%C3%A3o/data=!4m7!3m6!1s0x94ce5bebcd0e76fb:0x3068284bac76a4e9!8m2!3d-23.5933844!4d-46.6096958!16s%2Fg%2F1t_h_36x!19sChIJ-3YOzetbzpQR6aR2rEsoaDA?authuser=0&hl=pt-BR&rclk=1",
        "LATITUDE": -23.5933844,
        "LONGITUDE": -46.6096958
    },
    {
        "TITLE": "Igreja Santa Cruz das Almas dos Enforcados",
        "LINK": "https://www.google.com.br/maps/place/Igreja+Santa+Cruz+das+Almas+dos+Enforcados/data=!4m7!3m6!1s0x94ce59a926b8bce5:0x44fdd2d331fd936f!8m2!3d-23.5556403!4d-46.6358852!16s%2Fg%2F1q66zm9nq!19sChIJ5by4JqlZzpQRb5P9MdPS_UQ?authuser=0&hl=pt-BR&rclk=1",
        "LATITUDE": -23.5556403,
        "LONGITUDE": -46.6358852
    },
    {
        "TITLE": "Paróquia Nossa Senhora de Sião",
        "LINK": "https://www.google.com.br/maps/place/Par%C3%B3quia+Nossa+Senhora+de+Si%C3%A3o/data=!4m7!3m6!1s0x94ce5bbe0f1d3605:0xd6eaea41e10b61ad!8m2!3d-23.602303!4d-46.6133564!16s%2Fg%2F1tfdzzy2!19sChIJBTYdD75bzpQRrWEL4UHq6tY?authuser=0&hl=pt-BR&rclk=1",
        "LATITUDE": -23.602303,
        "LONGITUDE": -46.6133564
    },
    {
        "TITLE": "Capela de São Joaquim",
        "LINK": "https://www.google.com.br/maps/place/Capela+de+S%C3%A3o+Joaquim/data=!4m7!3m6!1s0x94ce59bd308b3481:0xab8826f60cf7c4f3!8m2!3d-23.5684272!4d-46.6420205!16s%2Fg%2F11dxlc07nj!19sChIJgTSLML1ZzpQR88T3DPYmiKs?authuser=0&hl=pt-BR&rclk=1",
        "LATITUDE": -23.5684272,
        "LONGITUDE": -46.6420205
    },
    {
        "TITLE": "Paróquia Nossa Senhora Aparecida dos Ferroviários",
        "LINK": "https://www.google.com.br/maps/place/Par%C3%B3quia+Nossa+Senhora+Aparecida+dos+Ferrovi%C3%A1rios/data=!4m7!3m6!1s0x94ce592337807d89:0xda18fdfc305c40e0!8m2!3d-23.5483644!4d-46.6091811!16s%2Fm%2F0lqj8ng!19sChIJiX2ANyNZzpQR4EBcMPz9GNo?authuser=0&hl=pt-BR&rclk=1",
        "LATITUDE": -23.5483644,
        "LONGITUDE": -46.6091811
    },
    {
        "TITLE": "Paróquia Santa Maria Madalena e São Miguel Arcanjo",
        "LINK": "https://www.google.com.br/maps/place/Par%C3%B3quia+Santa+Maria+Madalena+e+S%C3%A3o+Miguel+Arcanjo/data=!4m7!3m6!1s0x94ce57be6d264af1:0x26d4c62cd9f032a9!8m2!3d-23.5527372!4d-46.6916323!16s%2Fg%2F1tj74qsr!19sChIJ8Uombb5XzpQRqTLw2SzG1CY?authuser=0&hl=pt-BR&rclk=1",
        "LATITUDE": -23.5527372,
        "LONGITUDE": -46.6916323
    },
    {
        "TITLE": "Catedral Metropolitana da Sé",
        "LINK": "https://www.google.com.br/maps/place/Catedral+Metropolitana+da+S%C3%A9/data=!4m7!3m6!1s0x94ce59abb2b2eef1:0xfdb32e67a44103f5!8m2!3d-23.5512802!4d-46.6343427!16zL20vMDl6NGtr!19sChIJ8e6ysqtZzpQR9QNBpGcus_0?authuser=0&hl=pt-BR&rclk=1",
        "LATITUDE": -23.5512802,
        "LONGITUDE": -46.6343427
    },
    {
        "TITLE": "Igreja Santo Antônio - Patriarca",
        "LINK": "https://www.google.com.br/maps/place/Igreja+Santo+Ant%C3%B4nio+-+Patriarca/data=!4m7!3m6!1s0x94ce585499af912d:0xa4386a55ef0e5692!8m2!3d-23.5478819!4d-46.6366!16s%2Fm%2F0lqj4wd!19sChIJLZGvmVRYzpQRklYO71VqOKQ?authuser=0&hl=pt-BR&rclk=1",
        "LATITUDE": -23.5478819,
        "LONGITUDE": -46.6366
    },
    {
        "TITLE": "Paróquia Santa Generosa - Salão Paroquial",
        "LINK": "https://www.google.com.br/maps/place/Par%C3%B3quia+Santa+Generosa+-+Sal%C3%A3o+Paroquial/data=!4m7!3m6!1s0x94ce59974bdcc55d:0x4b16219ea3427d18!8m2!3d-23.5745609!4d-46.6425953!16s%2Fg%2F11fxz9_l1c!19sChIJXcXcS5dZzpQRGH1Co54hFks?authuser=0&hl=pt-BR&rclk=1",
        "LATITUDE": -23.5745609,
        "LONGITUDE": -46.6425953
    },
    {
        "TITLE": "Paróquia Nossa Senhora Mãe do Salvador (Cruz Torta)",
        "LINK": "https://www.google.com.br/maps/place/Par%C3%B3quia+Nossa+Senhora+M%C3%A3e+do+Salvador+%28Cruz+Torta%29/data=!4m7!3m6!1s0x94ce57ae1dcd35d9:0x6de1772855241956!8m2!3d-23.5597125!4d-46.6997421!16s%2Fg%2F11btr185mx!19sChIJ2TXNHa5XzpQRVhkkVSh34W0?authuser=0&hl=pt-BR&rclk=1",
        "LATITUDE": -23.5597125,
        "LONGITUDE": -46.6997421
    },
    {
        "TITLE": "Paróquia San Gennaro",
        "LINK": "https://www.google.com.br/maps/place/Par%C3%B3quia+San+Gennaro/data=!4m7!3m6!1s0x94ce5916d6e9cacb:0x915d4c83e44793e!8m2!3d-23.5541535!4d-46.6157408!16s%2Fg%2F1tywz1s6!19sChIJy8rp1hZZzpQRPnlEPsjUFQk?authuser=0&hl=pt-BR&rclk=1",
        "LATITUDE": -23.5541535,
        "LONGITUDE": -46.6157408
    },
    {
        "TITLE": "Mitra Arquidiocesana São Paulo",
        "LINK": "https://www.google.com.br/maps/place/Mitra+Arquidiocesana+S%C3%A3o+Paulo/data=!4m7!3m6!1s0x94ce59880fadcfc3:0x98eaed883ebd24e1!8m2!3d-23.588385!4d-46.6419757!16s%2Fg%2F1tkc7tcz!19sChIJw8-tD4hZzpQR4SS9Pojt6pg?authuser=0&hl=pt-BR&rclk=1",
        "LATITUDE": -23.588385,
        "LONGITUDE": -46.6419757
    },
    {
        "TITLE": "Paróquia São Rafael Arcanjo",
        "LINK": "https://www.google.com.br/maps/place/Par%C3%B3quia+S%C3%A3o+Rafael+Arcanjo/data=!4m7!3m6!1s0x94ce5947cfaab027:0x3baf5b86503e5ec6!8m2!3d-23.5581344!4d-46.6034165!16s%2Fg%2F11cnc3xwg_!19sChIJJ7Cqz0dZzpQRxl4-UIZbrzs?authuser=0&hl=pt-BR&rclk=1",
        "LATITUDE": -23.5581344,
        "LONGITUDE": -46.6034165
    },
    {
        "TITLE": "Igreja São José de Anchieta (Pátio do Colégio)",
        "LINK": "https://www.google.com.br/maps/place/Igreja+S%C3%A3o+Jos%C3%A9+de+Anchieta+%28P%C3%A1tio+do+Col%C3%A9gio%29/data=!4m7!3m6!1s0x94ce59aab09f2613:0x56d6ad3864d82586!8m2!3d-23.5480678!4d-46.6326606!16s%2Fg%2F11bxdw1ljv!19sChIJEyafsKpZzpQRhiXYZDit1lY?authuser=0&hl=pt-BR&rclk=1",
        "LATITUDE": -23.5480678,
        "LONGITUDE": -46.6326606
    },
    {
        "TITLE": "Paróquia Nossa Senhora da Paz",
        "LINK": "https://www.google.com.br/maps/place/Par%C3%B3quia+Nossa+Senhora+da+Paz/data=!4m7!3m6!1s0x94ce59063fc00fdf:0x2c607dcef527b6e2!8m2!3d-23.5547231!4d-46.6280823!16s%2Fg%2F11csq1l1qr!19sChIJ3w_APwZZzpQR4rYn9c59YCw?authuser=0&hl=pt-BR&rclk=1",
        "LATITUDE": -23.5547231,
        "LONGITUDE": -46.6280823
    },
    {
        "TITLE": "Capela de São Joaquim",
        "LINK": "https://www.google.com.br/maps/place/Capela+de+S%C3%A3o+Joaquim/data=!4m7!3m6!1s0x94ce59bd308b3481:0xab8826f60cf7c4f3!8m2!3d-23.5684272!4d-46.6420205!16s%2Fg%2F11dxlc07nj!19sChIJgTSLML1ZzpQR88T3DPYmiKs?authuser=0&hl=pt-BR&rclk=1",
        "LATITUDE": -23.5684272,
        "LONGITUDE": -46.6420205
    },
    {
        "TITLE": "Paróquia Santa Teresinha do Menino Jesus - Bosque da Saúde",
        "LINK": "https://www.google.com.br/maps/place/Par%C3%B3quia+Santa+Teresinha+do+Menino+Jesus+-+Bosque+da+Sa%C3%BAde/data=!4m7!3m6!1s0x94ce5bb2fb7763db:0x4c1de585e0dfa437!8m2!3d-23.6112781!4d-46.629954!16s%2Fg%2F1tplrg19!19sChIJ22N3-7JbzpQRN6Tf4IXlHUw?authuser=0&hl=pt-BR&rclk=1",
        "LATITUDE": -23.6112781,
        "LONGITUDE": -46.629954
    },
    {
        "TITLE": "Igreja das Chagas do Seráphico Pai São Francisco",
        "LINK": "https://www.google.com.br/maps/place/Igreja+das+Chagas+do+Ser%C3%A1phico+Pai+S%C3%A3o+Francisco/data=!4m7!3m6!1s0x94ce585323188979:0x9ccc081a5a873577!8m2!3d-23.5500971!4d-46.63772!16s%2Fg%2F11r_pqfn4!19sChIJeYkYI1NYzpQRdzWHWhoIzJw?authuser=0&hl=pt-BR&rclk=1",
        "LATITUDE": -23.5500971,
        "LONGITUDE": -46.63772
    },
    {
        "TITLE": "Mitra Arquidiocesana de São Paulo",
        "LINK": "https://www.google.com.br/maps/place/Mitra+Arquidiocesana+de+S%C3%A3o+Paulo/data=!4m7!3m6!1s0x94ce5a4e975c64af:0x3697ae5606ca3bcc!8m2!3d-23.6048383!4d-46.6379249!16s%2Fg%2F1hc7dw5wj!19sChIJr2Rcl05azpQRzDvKBlaulzY?authuser=0&hl=pt-BR&rclk=1",
        "LATITUDE": -23.6048383,
        "LONGITUDE": -46.6379249
    },
    {
        "TITLE": "Paróquia Nossa Senhora da Conceição - Santa Ifigênia",
        "LINK": "https://www.google.com.br/maps/place/Par%C3%B3quia+Nossa+Senhora+da+Concei%C3%A7%C3%A3o+-+Santa+Ifig%C3%AAnia/data=!4m7!3m6!1s0x94ce5850cd0fc25d:0xd516029eb0827e48!8m2!3d-23.5412722!4d-46.6369062!16s%2Fg%2F12tb7rs5h!19sChIJXcIPzVBYzpQRSH6CsJ4CFtU?authuser=0&hl=pt-BR&rclk=1",
        "LATITUDE": -23.5412722,
        "LONGITUDE": -46.6369062
    },
    {
        "TITLE": "Paróquia Nossa Senhora De Lourdes",
        "LINK": "https://www.google.com.br/maps/place/Par%C3%B3quia+Nossa+Senhora+De+Lourdes/data=!4m7!3m6!1s0x94ce5a428b213c0b:0xed4130f3e9bce5b1!8m2!3d-23.6183333!4d-46.6502778!16s%2Fm%2F0lq1ykd!19sChIJCzwhi0JazpQRseW86fMwQe0?authuser=0&hl=pt-BR&rclk=1",
        "LATITUDE": -23.6183333,
        "LONGITUDE": -46.6502778
    },
    {
        "TITLE": "Paróquia Nossa Senhora de Guadalupe",
        "LINK": "https://www.google.com.br/maps/place/Par%C3%B3quia+Nossa+Senhora+de+Guadalupe/data=!4m7!3m6!1s0x94ce5a7441673c5f:0x89e9bac68a1f1747!8m2!3d-23.6197911!4d-46.6671843!16s%2Fg%2F1pp2vm39_!19sChIJXzxnQXRazpQRRxcfisa66Yk?authuser=0&hl=pt-BR&rclk=1",
        "LATITUDE": -23.6197911,
        "LONGITUDE": -46.6671843
    },
    {
        "TITLE": "Paróquia Imaculado Coração de Maria",
        "LINK": "https://www.google.com.br/maps/place/Par%C3%B3quia+Imaculado+Cora%C3%A7%C3%A3o+de+Maria/data=!4m7!3m6!1s0x94ce583947b2ffcd:0xca0d4112e481a740!8m2!3d-23.5416726!4d-46.6550262!16s%2Fm%2F0lqgj99!19sChIJzf-yRzlYzpQRQKeB5BJBDco?authuser=0&hl=pt-BR&rclk=1",
        "LATITUDE": -23.5416726,
        "LONGITUDE": -46.6550262
    },
    {
        "TITLE": "Paróquia Nossa Senhora da Providencia",
        "LINK": "https://www.google.com.br/maps/place/Par%C3%B3quia+Nossa+Senhora+da+Providencia/data=!4m7!3m6!1s0x94ce572b7144c993:0xaaba7a28912b51d8!8m2!3d-23.6085435!4d-46.7055792!16s%2Fg%2F1ptwvqtd3!19sChIJk8lEcStXzpQR2FErkSh6uqo?authuser=0&hl=pt-BR&rclk=1",
        "LATITUDE": -23.6085435,
        "LONGITUDE": -46.7055792
    },
    {
        "TITLE": "Igreja da Ordem Terceira do Carmo",
        "LINK": "https://www.google.com.br/maps/place/Igreja+da+Ordem+Terceira+do+Carmo/data=!4m7!3m6!1s0x94ce590097314f8f:0xfcd2b40a2b29157a!8m2!3d-23.5504155!4d-46.6312078!16s%2Fm%2F0lq45_l!19sChIJj08xlwBZzpQRehUpKwq00vw?authuser=0&hl=pt-BR&rclk=1",
        "LATITUDE": -23.5504155,
        "LONGITUDE": -46.6312078
    },
    {
        "TITLE": "Santuário do Bom Jesus - Igreja Católica Apostólica Renovada",
        "LINK": "https://www.google.com.br/maps/place/Santu%C3%A1rio+do+Bom+Jesus+-+Igreja+Cat%C3%B3lica+Apost%C3%B3lica+Renovada/data=!4m7!3m6!1s0x94ce5924da1fb77b:0x4557e2b7793dc672!8m2!3d-23.5482778!4d-46.6246273!16s%2Fg%2F1td2w0br!19sChIJe7cf2iRZzpQRcsY9ebfiV0U?authuser=0&hl=pt-BR&rclk=1",
        "LATITUDE": -23.5482778,
        "LONGITUDE": -46.6246273
    },
    {
        "TITLE": "Congregação Irmãs Nossa Senhora Consolação",
        "LINK": "https://www.google.com.br/maps/place/Congrega%C3%A7%C3%A3o+Irm%C3%A3s+Nossa+Senhora+Consola%C3%A7%C3%A3o/data=!4m7!3m6!1s0x94ce582fb7a35713:0x6c7471193a1f541a!8m2!3d-23.5503799!4d-46.6627572!16s%2Fg%2F1tp28d4p!19sChIJE1ejty9YzpQRGlQfOhlxdGw?authuser=0&hl=pt-BR&rclk=1",
        "LATITUDE": -23.5503799,
        "LONGITUDE": -46.6627572
    },
    {
        "TITLE": "Paróquia Santa Cecília",
        "LINK": "https://www.google.com.br/maps/place/Par%C3%B3quia+Santa+Cec%C3%ADlia/data=!4m7!3m6!1s0x94ce5840cb6c9fe3:0xd2acbd067383b86e!8m2!3d-23.5392422!4d-46.6497834!16s%2Fg%2F1pp2vj2_j!19sChIJ459sy0BYzpQRbriDcwa9rNI?authuser=0&hl=pt-BR&rclk=1",
        "LATITUDE": -23.5392422,
        "LONGITUDE": -46.6497834
    },
    {
        "TITLE": "Capela Santa Luzia",
        "LINK": "https://www.google.com.br/maps/place/Capela+Santa+Luzia/data=!4m7!3m6!1s0x94ce59c9c0a51f2f:0xc2b41b8737e7312a!8m2!3d-23.5602452!4d-46.651994!16s%2Fg%2F11f2w6x2rt!19sChIJLx-lwMlZzpQRKjHnN4cbtMI?authuser=0&hl=pt-BR&rclk=1",
        "LATITUDE": -23.5602452,
        "LONGITUDE": -46.651994
    },
    {
        "TITLE": "Paróquia Sagrado Coração de Jesus",
        "LINK": "https://www.google.com.br/maps/place/Par%C3%B3quia+Sagrado+Cora%C3%A7%C3%A3o+de+Jesus/data=!4m7!3m6!1s0x94ce50be1986c39f:0xbdd6045c44fb4cb7!8m2!3d-23.6224242!4d-46.6865171!16s%2Fg%2F1tq6fm0v!19sChIJn8OGGb5QzpQRt0z7RFwE1r0?authuser=0&hl=pt-BR&rclk=1",
        "LATITUDE": -23.6224242,
        "LONGITUDE": -46.6865171
    },
    {
        "TITLE": "ACN Brasil",
        "LINK": "https://www.google.com.br/maps/place/ACN+Brasil/data=!4m7!3m6!1s0x94ce5a29f750518d:0xf3c75c9d5fac4d8!8m2!3d-23.5879586!4d-46.6369032!16s%2Fg%2F1tf442b8!19sChIJjVFQ9ylazpQR2MT61cl1PA8?authuser=0&hl=pt-BR&rclk=1",
        "LATITUDE": -23.5879586,
        "LONGITUDE": -46.6369032
    },
    {
        "TITLE": "Paróquia Pessoal Francesa de São Francisco de Sales",
        "LINK": "https://www.google.com.br/maps/place/Par%C3%B3quia+Pessoal+Francesa+de+S%C3%A3o+Francisco+de+Sales/data=!4m7!3m6!1s0x94ce5a2e420dc4e1:0xfd263d0e66abc563!8m2!3d-23.5955124!4d-46.6380361!16s%2Fg%2F11bv6ppb3t!19sChIJ4cQNQi5azpQRY8WrZg49Jv0?authuser=0&hl=pt-BR&rclk=1",
        "LATITUDE": -23.5955124,
        "LONGITUDE": -46.6380361
    },
    {
        "TITLE": "Capela Católica Cristo Operário",
        "LINK": "https://www.google.com.br/maps/place/Capela+Cat%C3%B3lica+Cristo+Oper%C3%A1rio/data=!4m7!3m6!1s0x94ce59998c46dc6f:0x721211c1051bdbd5!8m2!3d-23.6093827!4d-46.6122625!16s%2Fg%2F11c5rvsztv!19sChIJb9xGjJlZzpQR1dsbBcEREnI?authuser=0&hl=pt-BR&rclk=1",
        "LATITUDE": -23.6093827,
        "LONGITUDE": -46.6122625
    },
    {
        "TITLE": "Paróquia São Domingos",
        "LINK": "https://www.google.com.br/maps/place/Par%C3%B3quia+S%C3%A3o+Domingos/data=!4m7!3m6!1s0x94ce57f55997aee1:0x35984109de065898!8m2!3d-23.5413985!4d-46.6701444!16s%2Fg%2F1td2_l5n!19sChIJ4a6XWfVXzpQRmFgG3glBmDU?authuser=0&hl=pt-BR&rclk=1",
        "LATITUDE": -23.5413985,
        "LONGITUDE": -46.6701444
    },
    {
        "TITLE": "Igreja Nossa Senhora do Rosário dos Homens Pretos",
        "LINK": "https://www.google.com.br/maps/place/Igreja+Nossa+Senhora+do+Ros%C3%A1rio+dos+Homens+Pretos/data=!4m7!3m6!1s0x94ce58512202937f:0xab5b7c29760b3f7e!8m2!3d-23.5430623!4d-46.6381407!16s%2Fg%2F12276wms!19sChIJf5MCIlFYzpQRfj8Ldil8W6s?authuser=0&hl=pt-BR&rclk=1",
        "LATITUDE": -23.5430623,
        "LONGITUDE": -46.6381407
    },
    {
        "TITLE": "Comunidade Advento",
        "LINK": "https://www.google.com.br/maps/place/Comunidade+Advento/data=!4m7!3m6!1s0x94ce571a015e06ab:0xe1be230d61e44a64!8m2!3d-23.5846751!4d-46.6995492!16s%2Fg%2F11h0_jvkq!19sChIJqwZeARpXzpQRZErkYQ0jvuE?authuser=0&hl=pt-BR&rclk=1",
        "LATITUDE": -23.5846751,
        "LONGITUDE": -46.6995492
    },
    {
        "TITLE": "Paróquia Nossa Senhora do Bom Conselho",
        "LINK": "https://www.google.com.br/maps/place/Par%C3%B3quia+Nossa+Senhora+do+Bom+Conselho/data=!4m7!3m6!1s0x94ce5eb1bdfe237b:0xbf69cdc7ca5e93b7!8m2!3d-23.5594214!4d-46.587528!16s%2Fm%2F0lq6b1p!19sChIJeyP-vbFezpQRt5NeysfNab8?authuser=0&hl=pt-BR&rclk=1",
        "LATITUDE": -23.5594214,
        "LONGITUDE": -46.587528
    },
    {
        "TITLE": "Paróquia Imaculado Coração de Maria - PUC",
        "LINK": "https://www.google.com.br/maps/place/Par%C3%B3quia+Imaculado+Cora%C3%A7%C3%A3o+de+Maria+-+PUC/data=!4m7!3m6!1s0x94ce57f58a6a90bb:0xc6ae62526ea51a4e!8m2!3d-23.5380062!4d-46.6706442!16s%2Fg%2F1pp2vjzxj!19sChIJu5BqivVXzpQRThqlblJirsY?authuser=0&hl=pt-BR&rclk=1",
        "LATITUDE": -23.5380062,
        "LONGITUDE": -46.6706442
    },
    {
        "TITLE": "Paróquia Nossa Senhora Aparecida",
        "LINK": "https://www.google.com.br/maps/place/Par%C3%B3quia+Nossa+Senhora+Aparecida/data=!4m7!3m6!1s0x94ce57dd48ef2b61:0xb46433202109dacc!8m2!3d-23.5358516!4d-46.6942589!16s%2Fg%2F1tgzcgn0!19sChIJYSvvSN1XzpQRzNoJISAzZLQ?authuser=0&hl=pt-BR&rclk=1",
        "LATITUDE": -23.5358516,
        "LONGITUDE": -46.6942589
    },
    {
        "TITLE": "Paróquia São João Batista do Brás",
        "LINK": "https://www.google.com.br/maps/place/Par%C3%B3quia+S%C3%A3o+Jo%C3%A3o+Batista+do+Br%C3%A1s/data=!4m7!3m6!1s0x94ce5ed21aabffff:0x85fec27b9f1f1ae6!8m2!3d-23.5394545!4d-46.6062586!16s%2Fg%2F11nmrq8jwm!19sChIJ__-rGtJezpQR5hofn3vC_oU?authuser=0&hl=pt-BR&rclk=1",
        "LATITUDE": -23.5394545,
        "LONGITUDE": -46.6062586
    },
    {
        "TITLE": "Igreja de Cristo na Nove de Julho",
        "LINK": "https://www.google.com.br/maps/place/Igreja+de+Cristo+na+Nove+de+Julho/data=!4m7!3m6!1s0x94ce5761b9de302f:0xbca4a807992fb1eb!8m2!3d-23.5773167!4d-46.6719613!16s%2Fg%2F1tf6ygtm!19sChIJLzDeuWFXzpQR67EvmQeopLw?authuser=0&hl=pt-BR&rclk=1",
        "LATITUDE": -23.5773167,
        "LONGITUDE": -46.6719613
    },
    {
        "TITLE": "Paróquia Nossa Senhora Auxiliadora",
        "LINK": "https://www.google.com.br/maps/place/Par%C3%B3quia+Nossa+Senhora+Auxiliadora/data=!4m7!3m6!1s0x94ce585830753199:0xa9499fea30e6b19e!8m2!3d-23.5301805!4d-46.6344131!16s%2Fg%2F1vd72fxz!19sChIJmTF1MFhYzpQRnrHmMOqfSak?authuser=0&hl=pt-BR&rclk=1",
        "LATITUDE": -23.5301805,
        "LONGITUDE": -46.6344131
    },
    {
        "TITLE": "Paróquia Santo Antônio do Pari",
        "LINK": "https://www.google.com.br/maps/place/Par%C3%B3quia+Santo+Ant%C3%B4nio+do+Pari/data=!4m7!3m6!1s0x94ce58ef65a2eda3:0xec3f47f63f1fbcfb!8m2!3d-23.5328118!4d-46.6191723!16s%2Fg%2F1ptyshfht!19sChIJo-2iZe9YzpQR-7wfP_ZHP-w?authuser=0&hl=pt-BR&rclk=1",
        "LATITUDE": -23.5328118,
        "LONGITUDE": -46.6191723
    },
    {
        "TITLE": "Paróquia Nossa Senhora da Lapa",
        "LINK": "https://www.google.com.br/maps/place/Par%C3%B3quia+Nossa+Senhora+da+Lapa/data=!4m7!3m6!1s0x94cef8647decbabd:0x6c5dd39febd2838d!8m2!3d-23.5220306!4d-46.7041235!16s%2Fg%2F1pp2wxqy3!19sChIJvbrsfWT4zpQRjYPS65_TXWw?authuser=0&hl=pt-BR&rclk=1",
        "LATITUDE": -23.5220306,
        "LONGITUDE": -46.7041235
    },
    {
        "TITLE": "Paróquia Sagrada Família - Diocese de Santo Amaro",
        "LINK": "https://www.google.com.br/maps/place/Par%C3%B3quia+Sagrada+Fam%C3%ADlia+-+Diocese+de+Santo+Amaro/data=!4m7!3m6!1s0x94ce50ee445266fd:0xec879b1b2932b2b2!8m2!3d-23.6345821!4d-46.6960953!16s%2Fg%2F1tj4clv4!19sChIJ_WZSRO5QzpQRsrIyKRubh-w?authuser=0&hl=pt-BR&rclk=1",
        "LATITUDE": -23.6345821,
        "LONGITUDE": -46.6960953
    },
    {
        "TITLE": "Paróquia São Geraldo",
        "LINK": "https://www.google.com.br/maps/place/Par%C3%B3quia+S%C3%A3o+Geraldo/data=!4m7!3m6!1s0x94ce581c70646123:0x76f71dacfe86c801!8m2!3d-23.5315765!4d-46.6631235!16s%2Fg%2F11csqhq8yr!19sChIJI2FkcBxYzpQRAciG_qwd93Y?authuser=0&hl=pt-BR&rclk=1",
        "LATITUDE": -23.5315765,
        "LONGITUDE": -46.6631235
    },
    {
        "TITLE": "Capela São Vicente de Paulo",
        "LINK": "https://www.google.com.br/maps/place/Capela+S%C3%A3o+Vicente+de+Paulo/data=!4m7!3m6!1s0x94ce581604ec295b:0x7b1c06201f416b28!8m2!3d-23.5365806!4d-46.6566134!16s%2Fg%2F11dxm697w5!19sChIJWynsBBZYzpQRKGtBHyAGHHs?authuser=0&hl=pt-BR&rclk=1",
        "LATITUDE": -23.5365806,
        "LONGITUDE": -46.6566134
    },
    {
        "TITLE": "Paróquia de Santa Cecília",
        "LINK": "https://www.google.com.br/maps/place/Par%C3%B3quia+de+Santa+Cec%C3%ADlia/data=!4m7!3m6!1s0x94ce583f514fa96f:0x7e31329724ffdbc4!8m2!3d-23.5395089!4d-46.6513658!16s%2Fg%2F1ptwp_fgp!19sChIJb6lPUT9YzpQRxNv_JJcyMX4?authuser=0&hl=pt-BR&rclk=1",
        "LATITUDE": -23.5395089,
        "LONGITUDE": -46.6513658
    },
    {
        "TITLE": "Paróquia Santa Catarina de Alexandria",
        "LINK": "https://www.google.com.br/maps/place/Par%C3%B3quia+Santa+Catarina+de+Alexandria/data=!4m7!3m6!1s0x94ce5a99864f7389:0x1586373f2b63cc52!8m2!3d-23.6486382!4d-46.6625462!16s%2Fg%2F1th8324d!19sChIJiXNPhplazpQRUsxjKz83hhU?authuser=0&hl=pt-BR&rclk=1",
        "LATITUDE": -23.6486382,
        "LONGITUDE": -46.6625462
    },
    {
        "TITLE": "Capela São José",
        "LINK": "https://www.google.com.br/maps/place/Capela+S%C3%A3o+Jos%C3%A9/data=!4m7!3m6!1s0x94ce5a58657445e7:0xd057f7f0eb62fae2!8m2!3d-23.6266273!4d-46.6429571!16s%2Fg%2F11c0py47q2!19sChIJ50V0ZVhazpQR4vpi6_D3V9A?authuser=0&hl=pt-BR&rclk=1",
        "LATITUDE": -23.6266273,
        "LONGITUDE": -46.6429571
    },
    {
        "TITLE": "Mitra Arquidiocesana de São Paulo",
        "LINK": "https://www.google.com.br/maps/place/Mitra+Arquidiocesana+de+S%C3%A3o+Paulo/data=!4m7!3m6!1s0x94ce583cbe666ddb:0xbeb3c595d1363501!8m2!3d-23.5412239!4d-46.659579!16s%2Fg%2F1td2_l4h!19sChIJ221mvjxYzpQRATU20ZXFs74?authuser=0&hl=pt-BR&rclk=1",
        "LATITUDE": -23.5412239,
        "LONGITUDE": -46.659579
    },
    {
        "TITLE": "Paróquia São Paulo Apóstolo",
        "LINK": "https://www.google.com.br/maps/place/Par%C3%B3quia+S%C3%A3o+Paulo+Ap%C3%B3stolo/data=!4m7!3m6!1s0x94ce5ec8fbff31d1:0xe69c9b472cd19776!8m2!3d-23.5475922!4d-46.5856814!16s%2Fm%2F0lq5897!19sChIJ0TH_-8hezpQRdpfRLEebnOY?authuser=0&hl=pt-BR&rclk=1",
        "LATITUDE": -23.5475922,
        "LONGITUDE": -46.5856814
    },
    {
        "TITLE": "Santuário São Judas Tadeu",
        "LINK": "https://www.google.com.br/maps/place/Santu%C3%A1rio+S%C3%A3o+Judas+Tadeu/data=!4m7!3m6!1s0x94ce5a581008afe5:0xbddd610f2ff735d3!8m2!3d-23.6271568!4d-46.6431253!16s%2Fg%2F1wrtdzz1!19sChIJ5a8IEFhazpQR0zX3Lw9h3b0?authuser=0&hl=pt-BR&rclk=1",
        "LATITUDE": -23.6271568,
        "LONGITUDE": -46.6431253
    },
    {
        "TITLE": "Mitra Diocesana Santo Amaro",
        "LINK": "https://www.google.com.br/maps/place/Mitra+Diocesana+Santo+Amaro/data=!4m7!3m6!1s0x94ce5a74685cad23:0x37b681f3254dc52a!8m2!3d-23.6194565!4d-46.6673329!16s%2Fg%2F1x5fch97!19sChIJI61caHRazpQRKsVNJfOBtjc?authuser=0&hl=pt-BR&rclk=1",
        "LATITUDE": -23.6194565,
        "LONGITUDE": -46.6673329
    },
    {
        "TITLE": "Santuário Santa Cruz da Reconciliação",
        "LINK": "https://www.google.com.br/maps/place/Santu%C3%A1rio+Santa+Cruz+da+Reconcilia%C3%A7%C3%A3o/data=!4m7!3m6!1s0x94ce56fc2bec91a1:0x359b83c7b013b0a8!8m2!3d-23.5798769!4d-46.7120254!16s%2Fg%2F1ydkhr8k1!19sChIJoZHsK_xWzpQRqLATsMeDmzU?authuser=0&hl=pt-BR&rclk=1",
        "LATITUDE": -23.5798769,
        "LONGITUDE": -46.7120254
    },
    {
        "TITLE": "Paróquia de São Bento",
        "LINK": "https://www.google.com.br/maps/place/Par%C3%B3quia+de+S%C3%A3o+Bento/data=!4m7!3m6!1s0x94ce56c0a44e9b5f:0xdd7f8517eaf19a96!8m2!3d-23.6038322!4d-46.7283134!16s%2Fg%2F1ydkj41bp!19sChIJX5tOpMBWzpQRlprx6heFf90?authuser=0&hl=pt-BR&rclk=1",
        "LATITUDE": -23.6038322,
        "LONGITUDE": -46.7283134
    },
    {
        "TITLE": "Igreja de Santo Antônio de Sant'Anna Galvão",
        "LINK": "https://www.google.com.br/maps/place/Igreja+de+Santo+Ant%C3%B4nio+de+Sant%27Anna+Galv%C3%A3o/data=!4m7!3m6!1s0x94ce58f5781b5d19:0x6e95562c67e9b2be!8m2!3d-23.5303854!4d-46.6315085!16s%2Fg%2F11c52jn650!19sChIJGV0bePVYzpQRvrLpZyxWlW4?authuser=0&hl=pt-BR&rclk=1",
        "LATITUDE": -23.5303854,
        "LONGITUDE": -46.6315085
    },
    {
        "TITLE": "Paróquia São João Clímaco",
        "LINK": "https://www.google.com.br/maps/place/Par%C3%B3quia+S%C3%A3o+Jo%C3%A3o+Cl%C3%ADmaco/data=!4m7!3m6!1s0x94ce5c9dd4ee776b:0x3f54b4b633b30bb9!8m2!3d-23.6235276!4d-46.5908725!16s%2Fg%2F1tk_qdhq!19sChIJa3fu1J1czpQRuQuzM7a0VD8?authuser=0&hl=pt-BR&rclk=1",
        "LATITUDE": -23.6235276,
        "LONGITUDE": -46.5908725
    },
    {
        "TITLE": "Igreja Matriz Sagrada Família",
        "LINK": "https://www.google.com.br/maps/place/Igreja+Matriz+Sagrada+Fam%C3%ADlia/data=!4m7!3m6!1s0x94ce5ced01d3aa31:0xf25fc2dc1bd563f6!8m2!3d-23.614549!4d-46.5718042!16s%2Fg%2F1ptw8yn_y!19sChIJMarTAe1czpQR9mPVG9zCX_I?authuser=0&hl=pt-BR&rclk=1",
        "LATITUDE": -23.614549,
        "LONGITUDE": -46.5718042
    },
    {
        "TITLE": "Igreja Católica Apostólica Carismática - Paróquia Das Santas Missões - Padre Ricardo Padavini",
        "LINK": "https://www.google.com.br/maps/place/Igreja+Cat%C3%B3lica+Apost%C3%B3lica+Carism%C3%A1tica+-+Par%C3%B3quia+Das+Santas+Miss%C3%B5es+-+Padre+Ricardo+Padavini/data=!4m7!3m6!1s0x94ce5ecbceb73c73:0xf6049736a393a082!8m2!3d-23.5489234!4d-46.5893645!16s%2Fg%2F11xt3kx5b!19sChIJczy3zstezpQRgqCTozaXBPY?authuser=0&hl=pt-BR&rclk=1",
        "LATITUDE": -23.5489234,
        "LONGITUDE": -46.5893645
    },
    {
        "TITLE": "Paróquia Cristo Rei",
        "LINK": "https://www.google.com.br/maps/place/Par%C3%B3quia+Cristo+Rei/data=!4m7!3m6!1s0x94ce5edd80170607:0x2d53175f70bf675b!8m2!3d-23.5345333!4d-46.5740059!16s%2Fg%2F1vjdr5vs!19sChIJBwYXgN1ezpQRW2e_cF8XUy0?authuser=0&hl=pt-BR&rclk=1",
        "LATITUDE": -23.5345333,
        "LONGITUDE": -46.5740059
    },
    {
        "TITLE": "Paróquia Santo Antônio do Caxingui",
        "LINK": "https://www.google.com.br/maps/place/Par%C3%B3quia+Santo+Ant%C3%B4nio+do+Caxingui/data=!4m7!3m6!1s0x94ce56fa817cc8f1:0x77442c697c060d54!8m2!3d-23.5844746!4d-46.7184639!16s%2Fg%2F1vbl8qbr!19sChIJ8ch8gfpWzpQRVA0GfGksRHc?authuser=0&hl=pt-BR&rclk=1",
        "LATITUDE": -23.5844746,
        "LONGITUDE": -46.7184639
    },
    {
        "TITLE": "Paróquia Nossa Senhora da Conceição",
        "LINK": "https://www.google.com.br/maps/place/Par%C3%B3quia+Nossa+Senhora+da+Concei%C3%A7%C3%A3o/data=!4m7!3m6!1s0x94ce5eeaa571f7bf:0xc1784c3238884790!8m2!3d-23.5454613!4d-46.5736039!16s%2Fg%2F1tph2w7y!19sChIJv_dxpepezpQRkEeIODJMeME?authuser=0&hl=pt-BR&rclk=1",
        "LATITUDE": -23.5454613,
        "LONGITUDE": -46.5736039
    },
    {
        "TITLE": "Paróquia São João Maria Vianney",
        "LINK": "https://www.google.com.br/maps/place/Par%C3%B3quia+S%C3%A3o+Jo%C3%A3o+Maria+Vianney/data=!4m7!3m6!1s0x94cef874b73a539d:0xddbddfc2c2d4eaab!8m2!3d-23.5256467!4d-46.6902632!16s%2Fg%2F11c5s3jnvt!19sChIJnVM6t3T4zpQRq-rUwsLfvd0?authuser=0&hl=pt-BR&rclk=1",
        "LATITUDE": -23.5256467,
        "LONGITUDE": -46.6902632
    },
    {
        "TITLE": "Paróquia Nossa Senhora das Graças",
        "LINK": "https://www.google.com.br/maps/place/Par%C3%B3quia+Nossa+Senhora+das+Gra%C3%A7as/data=!4m7!3m6!1s0x94ce5adce2e1277d:0xa6481505f5a61461!8m2!3d-23.6478799!4d-46.6398429!16s%2Fg%2F1tdcn2nr!19sChIJfSfh4txazpQRYRSm9QUVSKY?authuser=0&hl=pt-BR&rclk=1",
        "LATITUDE": -23.6478799,
        "LONGITUDE": -46.6398429
    },
    {
        "TITLE": "Paróquia de Nossa Senhora das Angústias",
        "LINK": "https://www.google.com.br/maps/place/Par%C3%B3quia+de+Nossa+Senhora+das+Ang%C3%BAstias/data=!4m7!3m6!1s0x94cef7fe013d3adb:0x826860abaedc889f!8m2!3d-23.5208892!4d-46.665642!16s%2Fg%2F11ddzjbvww!19sChIJ2zo9Af73zpQRn4jcrqtgaII?authuser=0&hl=pt-BR&rclk=1",
        "LATITUDE": -23.5208892,
        "LONGITUDE": -46.665642
    },
    {
        "TITLE": "Paróquia São Pedro Apóstolo - Vila Oratório",
        "LINK": "https://www.google.com.br/maps/place/Par%C3%B3quia+S%C3%A3o+Pedro+Ap%C3%B3stolo+-+Vila+Orat%C3%B3rio/data=!4m7!3m6!1s0x94ce5ea780a36d85:0xe6907549b6cefdb7!8m2!3d-23.5678163!4d-46.5815618!16s%2Fg%2F11bc712d0c!19sChIJhW2jgKdezpQRt_3Otkl1kOY?authuser=0&hl=pt-BR&rclk=1",
        "LATITUDE": -23.5678163,
        "LONGITUDE": -46.5815618
    },
    {
        "TITLE": "Paróquia Sant'Ana - Diocese de Santo Amaro",
        "LINK": "https://www.google.com.br/maps/place/Par%C3%B3quia+Sant%27Ana+-+Diocese+de+Santo+Amaro/data=!4m7!3m6!1s0x94ce508ab8e71877:0xf1fbf1ae1d88a9aa!8m2!3d-23.6423511!4d-46.688724!16s%2Fg%2F1tdm9g1q!19sChIJdxjnuIpQzpQRqqmIHa7x-_E?authuser=0&hl=pt-BR&rclk=1",
        "LATITUDE": -23.6423511,
        "LONGITUDE": -46.688724
    },
    {
        "TITLE": "Paróquia Nossa Senhora do Perpétuo Socorro e Santa Rosália",
        "LINK": "https://www.google.com.br/maps/place/Par%C3%B3quia+Nossa+Senhora+do+Perp%C3%A9tuo+Socorro+e+Santa+Ros%C3%A1lia/data=!4m7!3m6!1s0x94ce50787abd54b7:0xf4d1d85aaa73c6ad!8m2!3d-23.6448836!4d-46.6712094!16s%2Fg%2F1ptxn2ksx!19sChIJt1S9enhQzpQRrcZzqlrY0fQ?authuser=0&hl=pt-BR&rclk=1",
        "LATITUDE": -23.6448836,
        "LONGITUDE": -46.6712094
    },
    {
        "TITLE": "Paróquia Armênia de São Gregório",
        "LINK": "https://www.google.com.br/maps/place/Par%C3%B3quia+Arm%C3%AAnia+de+S%C3%A3o+Greg%C3%B3rio/data=!4m7!3m6!1s0x94ce58f55d2726db:0x98f571fd5c18d200!8m2!3d-23.5296367!4d-46.6314429!16s%2Fg%2F11c6cq2fjq!19sChIJ2yYnXfVYzpQRANIYXP1x9Zg?authuser=0&hl=pt-BR&rclk=1",
        "LATITUDE": -23.5296367,
        "LONGITUDE": -46.6314429
    }
]